[
    {
      "name": "Delhi",
      "lat": 28.6139,
      "lng": 77.2090
    },
    {
      "name": "Mumbai",
      "lat": 19.0760,
      "lng": 72.8777
    },
    {
      "name": "Kolkata",
      "lat": 22.5726,
      "lng": 88.3639
    },
    {
      "name": "Bangalore",
      "lat": 12.9716,
      "lng": 77.5946
    },
    {
        "name":"Amreli",
        "lat":21.603176,
        "lng":71.222084
    }
  ]
  